{
"type": "FeatureCollection",
"name": "addresses",
"features": [
{ "type": "Feature", "properties": { "Name": "Salsa International", "Type": "School", "Address": "412 8th Ave, New York, NY 10001", "Memory": 2006 }, "geometry": { "type": "Point", "coordinates": [ -73.994742399999978, 40.7499699 ] } },
{ "type": "Feature", "properties": { "Name": "Club Cache", "Type": "Social", "Address": "221 W 46th St, New York, NY 10036", "Memory": 2006 }, "geometry": { "type": "Point", "coordinates": [ -73.986174499999976, 40.7593741 ] } },
{ "type": "Feature", "properties": { "Name": "Gonzalez y Gonzalez", "Type": "Social", "Address": "192 Mercer St, New York, NY 10012", "Memory": 2006 }, "geometry": { "type": "Point", "coordinates": [ -73.9970438, 40.7262093 ] } },
{ "type": "Feature", "properties": { "Name": "Eddie Torres", "Type": "School", "Address": "25 W 31st St, New York, NY 10019", "Memory": 2007 }, "geometry": { "type": "Point", "coordinates": [ -73.9872803, 40.7473324 ] } },
{ "type": "Feature", "properties": { "Name": "Triangulo", "Type": "School", "Address": "289 7th Ave, New York, NY 10001", "Memory": 2008 }, "geometry": { "type": "Point", "coordinates": [ -73.993822599999987, 40.7461589 ] } },
{ "type": "Feature", "properties": { "Name": "Rumba Y Timbal", "Type": "School", "Address": "7 Temple St, Cambridge, MA 02139", "Memory": 2008 }, "geometry": { "type": "Point", "coordinates": [ -71.1040634, 42.3665411 ] } },
{ "type": "Feature", "properties": { "Name": "Stepping Out Studios", "Type": "School", "Address": "37 W 26th St, New York, NY 10010", "Memory": 2009 }, "geometry": { "type": "Point", "coordinates": [ -73.9904622, 40.7445977 ] } },
{ "type": "Feature", "properties": { "Name": "Las Chicas Locas", "Type": "Social", "Address": "160 W 25th St, New York, NY 10001", "Memory": 2011 }, "geometry": { "type": "Point", "coordinates": [ -73.9942337, 40.7449824 ] } },
{ "type": "Feature", "properties": { "Name": "Abakua", "Type": "Social", "Address": "412 8th Ave, New York, NY 10001", "Memory": 2011 }, "geometry": { "type": "Point", "coordinates": [ -73.994742399999978, 40.7499699 ] } },
{ "type": "Feature", "properties": { "Name": "Taj", "Type": "Social", "Address": "48 W 21st St, New York, NY 10010", "Memory": 2011 }, "geometry": { "type": "Point", "coordinates": [ -73.992897, 40.7410042 ] } },
{ "type": "Feature", "properties": { "Name": "Session 73", "Type": "Social", "Address": "1359 1st Ave, New York, NY 10021", "Memory": 2011 }, "geometry": { "type": "Point", "coordinates": [ -73.9558618, 40.7684496 ] } },
{ "type": "Feature", "properties": { "Name": "Salsa Rosa", "Type": "School", "Address": "Diagonal 12 6-45, Quezaltenango 09001, Guatemala", "Memory": 2011 }, "geometry": { "type": "Point", "coordinates": [ -91.5232183, 14.8349457 ] } },
{ "type": "Feature", "properties": { "Name": "Piel Canela", "Type": "School", "Address": "500 8th Ave, New York, NY 10018", "Memory": 2011 }, "geometry": { "type": "Point", "coordinates": [ -73.9925318, 40.752981299999988 ] } },
{ "type": "Feature", "properties": { "Name": "You Should Be Dancing", "Type": "School", "Address": "412 8th Ave, New York, NY 10001", "Memory": 2011 }, "geometry": { "type": "Point", "coordinates": [ -73.994742399999978, 40.7499699 ] } },
{ "type": "Feature", "properties": { "Name": "Dardo Galleto Studios", "Type": "School", "Address": "151 W 46th St, New York, NY 10036", "Memory": 2011 }, "geometry": { "type": "Point", "coordinates": [ -73.9841102, 40.7583422 ] } },
{ "type": "Feature", "properties": { "Name": "Fu√°kata", "Type": "School", "Address": "25 West 31st St, New York, NY 10001", "Memory": 2011 }, "geometry": { "type": "Point", "coordinates": [ -73.9872803, 40.7473324 ] } },
{ "type": "Feature", "properties": { "Name": "Sunset Salsa", "Type": "Social", "Address": "Pier 45, New York, NY 10014", "Memory": 2011 }, "geometry": { "type": "Point", "coordinates": [ -74.010769299999978, 40.732555 ] } },
{ "type": "Feature", "properties": { "Name": "La Vieja Guardia", "Type": "Social", "Address": "37 W 26th St, New York, NY 10010", "Memory": 2011 }, "geometry": { "type": "Point", "coordinates": [ -73.9904622, 40.7445977 ] } },
{ "type": "Feature", "properties": { "Name": "Majesty in Motion", "Type": "School", "Address": "6380 El Cajon Blvd, San Diego, CA 92115", "Memory": 2012 }, "geometry": { "type": "Point", "coordinates": [ -117.0614957, 32.7650554 ] } },
{ "type": "Feature", "properties": { "Name": "Fiebre Bugalu", "Type": "School", "Address": "500 8th Ave, New York, NY 10018", "Memory": 2012 }, "geometry": { "type": "Point", "coordinates": [ -73.9925318, 40.752981299999988 ] } },
{ "type": "Feature", "properties": { "Name": "Bachateame Mama", "Type": "Social", "Address": "221 W 46th St, New York, NY 10036", "Memory": 2012 }, "geometry": { "type": "Point", "coordinates": [ -73.986174499999976, 40.7593741 ] } },
{ "type": "Feature", "properties": { "Name": "MamboNova", "Type": "School", "Address": "223 Moffett Blvd, Mountain View, CA 94043", "Memory": 2013 }, "geometry": { "type": "Point", "coordinates": [ -122.0768425, 37.3964293 ] } },
{ "type": "Feature", "properties": { "Name": "Baila Society", "Type": "School", "Address": "126 E 13th St, New York, NY 10003", "Memory": 2013 }, "geometry": { "type": "Point", "coordinates": [ -73.9887463, 40.7327198 ] } },
{ "type": "Feature", "properties": { "Name": "Yamulee", "Type": "School", "Address": "2435 Grand Concourse, Bronx, NY 10468", "Memory": 2013 }, "geometry": { "type": "Point", "coordinates": [ -73.8982975, 40.8612969 ] } },
{ "type": "Feature", "properties": { "Name": "Alberto's", "Type": "Social", "Address": "736 W Dana St, Mountain View, CA 94041", "Memory": 2013 }, "geometry": { "type": "Point", "coordinates": [ -122.078921400000013, 37.3923683 ] } },
{ "type": "Feature", "properties": { "Name": "El Valenciano", "Type": "Social", "Address": "1153 Valencia St, San Francisco, CA 94110", "Memory": 2013 }, "geometry": { "type": "Point", "coordinates": [ -122.420556599999983, 37.7545322 ] } },
{ "type": "Feature", "properties": { "Name": "Mambo Groovin", "Type": "School", "Address": "560 El Camino Real, Redwood City, CA 94062", "Memory": 2013 }, "geometry": { "type": "Point", "coordinates": [ -122.239198799999983, 37.4893069 ] } },
{ "type": "Feature", "properties": { "Name": "Rueda con Ritmo", "Type": "School", "Address": "351 Shotwell St, San Francisco, CA 94110", "Memory": 2013 }, "geometry": { "type": "Point", "coordinates": [ -122.4159522, 37.7627698 ] } },
{ "type": "Feature", "properties": { "Name": "Salsa Lovers", "Type": "School", "Address": "1405 SW 107th Ave, Miami, FL 33174", "Memory": 2013 }, "geometry": { "type": "Point", "coordinates": [ -80.3665278, 25.7559157 ] } },
{ "type": "Feature", "properties": { "Name": "Elite International Dance Academy", "Type": "School", "Address": "6692 Stirling Rd, Hollywood, FL 33024", "Memory": 2013 }, "geometry": { "type": "Point", "coordinates": [ -80.222034099999988, 26.0460268 ] } },
{ "type": "Feature", "properties": { "Name": "Casa Salsa", "Type": "School", "Address": "11322 W State Rd 84, Davie, FL 33325", "Memory": 2013 }, "geometry": { "type": "Point", "coordinates": [ -80.3015386, 26.1110307 ] } },
{ "type": "Feature", "properties": { "Name": "Club Cache", "Type": "Social", "Address": "22 W 39th St, New York, NY 10018", "Memory": 2014 }, "geometry": { "type": "Point", "coordinates": [ -73.9835897, 40.7519456 ] } },
{ "type": "Feature", "properties": { "Name": "Jimmy Anton", "Type": "Social", "Address": "34 W 26th St, New York, NY 10010", "Memory": 2014 }, "geometry": { "type": "Point", "coordinates": [ -73.990563099999989, 40.7442323 ] } },
{ "type": "Feature", "properties": { "Name": "Las Chicas Locas", "Type": "Social", "Address": "22 W 34th St, New York, NY 10001", "Memory": 2014 }, "geometry": { "type": "Point", "coordinates": [ -73.9864175, 40.748927 ] } },
{ "type": "Feature", "properties": { "Name": "Solas", "Type": "Social", "Address": "232 E 9th St, New York, NY 10003", "Memory": 2014 }, "geometry": { "type": "Point", "coordinates": [ -73.988133699999977, 40.7293349 ] } },
{ "type": "Feature", "properties": { "Name": "New York Salsa Congress", "Type": "Festival", "Address": "1535 Broadway, New York, NY 10036", "Memory": 2014 }, "geometry": { "type": "Point", "coordinates": [ -73.985820199999978, 40.7585862 ] } },
{ "type": "Feature", "properties": { "Name": "Bailando Por Una Causa", "Type": "Festival", "Address": "1230 Fifth Ave, New York, NY 10029", "Memory": 2014 }, "geometry": { "type": "Point", "coordinates": [ -73.9513662, 40.7930766 ] } },
{ "type": "Feature", "properties": { "Name": "BeSalsa", "Type": "School", "Address": "500 8th Avenue, New York, NY 10018", "Memory": 2015 }, "geometry": { "type": "Point", "coordinates": [ -73.9925318, 40.752981299999988 ] } },
{ "type": "Feature", "properties": { "Name": "Dance Revolution", "Type": "School", "Address": "220 S Main St, Ann Arbor, MI 48104", "Memory": 2016 }, "geometry": { "type": "Point", "coordinates": [ -83.7489014, 42.2798342 ] } },
{ "type": "Feature", "properties": { "Name": "Joel Salsa", "Type": "School", "Address": "519 8th Ave, New York, NY 10018", "Memory": 2016 }, "geometry": { "type": "Point", "coordinates": [ -73.993039599999989, 40.7533306 ] } },
{ "type": "Feature", "properties": { "Name": "YA Salsa", "Type": "Social", "Address": "31775 Grand River Ave, Farmington, MI 48336", "Memory": 2016 }, "geometry": { "type": "Point", "coordinates": [ -83.3604665, 42.4575466 ] } },
{ "type": "Feature", "properties": { "Name": "Bachata Embassy", "Type": "School", "Address": "500 8th Ave, New York, NY 10018", "Memory": 2018 }, "geometry": { "type": "Point", "coordinates": [ -73.9925318, 40.752981299999988 ] } },
{ "type": "Feature", "properties": { "Name": "Salsa Underground", "Type": "Social", "Address": "7800 Wisconsin Ave, Bethesda, MD 20814", "Memory": 2018 }, "geometry": { "type": "Point", "coordinates": [ -77.0954769, 38.98847 ] } },
{ "type": "Feature", "properties": { "Name": "Club Cache", "Type": "Social", "Address": "35 E 13th St, New York, NY 10003", "Memory": 2019 }, "geometry": { "type": "Point", "coordinates": [ -73.9919595, 40.734513799999988 ] } },
{ "type": "Feature", "properties": { "Name": "Las Chicas Locas", "Type": "Social", "Address": "268 W 47th St, New York, NY 10001", "Memory": 2019 }, "geometry": { "type": "Point", "coordinates": [ -73.987227699999977, 40.7601858 ] } },
{ "type": "Feature", "properties": { "Name": "BIG Salsa Festival NY", "Type": "Festival", "Address": "1335 6th Ave, New York, NY 10019", "Memory": 2019 }, "geometry": { "type": "Point", "coordinates": [ -73.9797938, 40.7622874 ] } },
{ "type": "Feature", "properties": { "Name": "DCBX", "Type": "Festival", "Address": "999 9th St NW, Washington, DC 20001", "Memory": 2019 }, "geometry": { "type": "Point", "coordinates": [ -77.023508, 38.9016907 ] } }
]
}
